{
    "data": [
        {
            "Type": "AWS",
            "Name": "AWS Sydney (ap-southeast-2)",
            "CompanyName": "AWS",
            "City": "Sydney",
            "Country": "Australia",
            "Latitude": "-33.8712112",
            "Longitude": "151.2049198"
        },
        {
            "Type": "AWS",
            "Name": "AWS South America (sa-east-1)",
            "CompanyName": "AWS",
            "City": "Sao Paulo",
            "Country": "Brazil",
            "Latitude": "-23.6646507",
            "Longitude": "-47.7941537"
        },
        {
            "Type": "AWS",
            "Name": "AWS Singapore (ap-souteast-1)",
            "CompanyName": "AWS",
            "City": "Singapore",
            "Country": "Malaysia",
            "Latitude": "1.3532241",
            "Longitude": "103.8440326"
        },
        {
            "Type": "AWS",
            "Name": "AWS Mumbai (ap-south-1)",
            "CompanyName": "AWS",
            "City": "Mumbai",
            "Country": "India",
            "Latitude": "19.1546839",
            "Longitude": "72.8819275"
        },
        {
            "Type": "AWS",
            "Name": "AWS Hong Kong (announced)",
            "CompanyName": "AWS",
            "City": "Hong Kong",
            "Country": "China",
            "Latitude": "22.327627",
            "Longitude": "114.154962"
        },
        {
            "Type": "AWS",
            "Name": "AWS Bahrain (announced)",
            "CompanyName": "AWS",
            "City": "Manama",
            "Country": "Bahrain",
            "Latitude": "26.155362",
            "Longitude": "50.517498",
            "NetworkCount": "9",
            "Description": "Opened in 2007, this 300 rack facility is able to supply quarter, half, full rack options and caged areas.\r\r\n\r\r\nISO27001 certified, part of the NHS National Network (N3), Health and Social Care Network (HSCN), Public Services Network (PSN), with waves and dark fibre available",
            "website": "http://www.4d-dc.com"
        },
        {
            "Type": "AWS",
            "Name": "AWS Tokyo (ap-northeast-1)",
            "CompanyName": "AWS",
            "City": "Tokyo",
            "Country": "Japan",
            "Latitude": "35.6968982",
            "Longitude": "139.6685028",
            "NetworkCount": "1",
            "website": "http://www.appt.com.au"
        },
        {
            "Type": "AWS",
            "Name": "AWS US West N California (us-west-2)",
            "CompanyName": "AWS",
            "City": "San Jose",
            "Country": "USA",
            "Latitude": "37.3738025",
            "Longitude": "-122.006827",
            "NetworkCount": "1",
            "website": "http://smtelemedia.com"
        },
        {
            "Type": "AWS",
            "Name": "AWS Ningxia (cn-north-2)",
            "CompanyName": "AWS",
            "City": "Ningxia",
            "Country": "China",
            "Latitude": "37.5402218",
            "Longitude": "106.4044004",
            "NetworkCount": "5",
            "website": "http://www.chinaunicomglobal.com"
        },
        {
            "Type": "AWS",
            "Name": "AWS Seoul (ap-northeast-2)",
            "CompanyName": "AWS",
            "City": "Seoul",
            "Country": "South Korea",
            "Latitude": "37.635985",
            "Longitude": "126.9098293",
            "NetworkCount": "23",
            "website": "http://www.cologix.com"
        },
        {
            "Type": "AWS",
            "Name": "AWS US East N Virginia (us-east-1)",
            "CompanyName": "AWS",
            "City": "Ashburn",
            "Country": "USA",
            "Latitude": "39.0160416",
            "Longitude": "-77.4616794",
            "NetworkCount": "5",
            "website": "http://www.cologix.com"
        },
        {
            "Type": "AWS",
            "Name": "AWS Gov Cloud East (us-gov-1)",
            "CompanyName": "AWS",
            "City": "Ashburn",
            "State": "VA",
            "Country": "USA",
            "Latitude": "39.2160416",
            "Longitude": "-77.4099794",
            "NetworkCount": "7",
            "Description": "aka: Servecentric",
            "website": "https://www.digitalrealty.com"
        },
        {
            "Type": "AWS",
            "Name": "AWS Bejing (cn-north-1)",
            "CompanyName": "AWS",
            "City": "Bejing",
            "Country": "China",
            "Latitude": "39.9343127",
            "Longitude": "116.4161659",
            "NetworkCount": "0",
            "website": "https://www.digitalrealty.com"
        },
        {
            "Type": "AWS",
            "Name": "AWS US East Ohio (us-east-2)",
            "CompanyName": "AWS",
            "City": "Columbus",
            "Country": "USA",
            "Latitude": "40.0838939",
            "Longitude": "-82.8089333",
            "NetworkCount": "4",
            "website": "http://www.edgeconnex.com"
        },
        {
            "Type": "AWS",
            "Name": "AWS Canada Central (ca-central-1)",
            "CompanyName": "AWS",
            "City": "Toronto",
            "Country": "Canada",
            "Latitude": "43.6648914",
            "Longitude": "-79.4169594",
            "NetworkCount": "0"
        },
        {
            "Type": "AWS",
            "Name": "AWS US West Oregon  (us-west-1)",
            "CompanyName": "AWS",
            "City": "Seattle",
            "Country": "USA",
            "Latitude": "47.5579939",
            "Longitude": "-122.312391",
            "NetworkCount": "0",
            "website": "https://www.equinix.com/locations/united-states-colocation/boston-data-center/bo2/"
        },
        {
            "Type": "AWS",
            "Name": "AWS Paris (eu-west-3)",
            "CompanyName": "AWS",
            "City": "Paris",
            "Country": "France",
            "Latitude": "48.8857913",
            "Longitude": "2.3748802",
            "NetworkCount": "1",
            "website": "http://www.equinix.com/"
        },
        {
            "Type": "AWS",
            "Name": "AWS Frankfurt (eu-central-1)",
            "CompanyName": "AWS",
            "City": "Frankfurt",
            "Country": "Germany",
            "Latitude": "50.115735",
            "Longitude": "8.6501335",
            "NetworkCount": "25",
            "website": "http://www.equinix.com/"
        },
        {
            "Type": "AWS",
            "Name": "AWS London (eu-west-2)",
            "CompanyName": "AWS",
            "City": "London",
            "Country": "England",
            "Latitude": "51.4962051",
            "Longitude": "-0.011788",
            "NetworkCount": "3",
            "website": "http://www.equinix.com/"
        },
        {
            "Type": "AWS",
            "Name": "AWS Ireland (eu-west-1)",
            "CompanyName": "AWS",
            "City": "Dublin",
            "Country": "Ireland",
            "Latitude": "53.4060189",
            "Longitude": "-6.1969757",
            "NetworkCount": "40",
            "website": "https://www.e-shelter.de/de/location/datacenter-berlin/"
        },
        {
            "Type": "AWS",
            "Name": "AWS Sweden (eu-north-1)",
            "CompanyName": "AWS",
            "City": "Stockholm",
            "Country": "Sweden",
            "Latitude": "59.3395876",
            "Longitude": "18.0332669",
            "NetworkCount": "49",
            "website": "https://www.e-shelter.de/de/location/datacenter-frankfurt-1"
        },
        {
            "Type": "AWSDirectConnect",
            "Name": "NEXTDC M1 (ap-southeast-2)",
            "CompanyName": "NEXTDC P1",
            "Address": "826 Lorimer St, Port Melbourne VIC 3207, Australia",
            "Country": "Australia",
            "Latitude": "-37.8226336",
            "Longitude": "144.9321061"
        },
        {
            "Type": "AWSDirectConnect",
            "Name": "NEXTDC C1, Canberra, Australia (ap-southeast-2)",
            "CompanyName": "NEXTDC P1",
            "Address": "19 Battye St, Bruce ACT 2617, Australia",
            "Country": "Australia",
            "Latitude": "-35.245383",
            "Longitude": "149.0961936"
        },
        {
            "Type": "AWSDirectConnect",
            "Name": "Teraco CT1 (eu-west-1)",
            "CompanyName": "Teraco",
            "Address": "240 Main Rd, Rondebosch, Cape Town, 7701, South Africa",
            "City": "Cape Town",
            "Country": "South Africa",
            "Latitude": "-33.9704886",
            "Longitude": "18.4651086"
        },
        {
            "Type": "AWSDirectConnect",
            "Name": "Equinix SY3 (ap-southeast-2)",
            "CompanyName": "Equinix",
            "Address": "47 Bourke Rd, Alexandria NSW 2015, Australia",
            "City": "Sydney",
            "Country": "Australia",
            "Latitude": "-33.911741",
            "Longitude": "151.19291"
        },
        {
            "Type": "AWSDirectConnect",
            "Name": "Global Switch SY6 (ap-southeast-2)",
            "CompanyName": "Global Switch",
            "Address": "400 Harris St, Ultimo NSW 2007, Australia",
            "City": "Ultimo",
            "Country": "Australia",
            "Latitude": "-33.8756413",
            "Longitude": "151.1975863"
        },
        {
            "Type": "AWSDirectConnect",
            "Name": "NEXTDC P1 (ap-southeast-2)",
            "CompanyName": "NEXTDC P1",
            "Address": "101 Malaga Dr, Malaga WA 6090, Australia",
            "Country": "Australia",
            "Latitude": "-31.8644016",
            "Longitude": "115.895935"
        },
        {
            "Type": "AWSDirectConnect",
            "Name": "Teraco JB1 (eu-west-1)",
            "CompanyName": "Teraco",
            "Address": "5 Brewery St, Isando, Kempton Park, 1600, South Africa",
            "City": "Kempton Park",
            "Country": "South Africa",
            "Latitude": "-26.13778",
            "Longitude": "28.19756"
        },
        {
            "Type": "AWSDirectConnect",
            "Name": "Tivit (sa-east-1)",
            "CompanyName": "Tivit",
            "Address": "Av. Maria Coelho Aguiar, 215 - Bloco D - Jardim São Luís, São Paulo - SP, 05804-900, Brazil",
            "City": "São Paulo",
            "Country": "Brazil",
            "Latitude": "-23.650071",
            "Longitude": "-46.7293492"
        },
        {
            "Type": "AWSDirectConnect",
            "Name": "Equinix SP4 (sa-east-1)",
            "CompanyName": "Equinix",
            "Address": "Av. Ceci, 1900 - 1º andar conjunto a - Tamboré, Barueri - SP, 06460-120, Brazil",
            "City": "Tamboré, Barueri",
            "Country": "Brazil",
            "Latitude": "-23.492582",
            "Longitude": "-46.808382"
        },
        {
            "Type": "AWSDirectConnect",
            "Name": "Equinix RJ2 (sa-east-1)",
            "CompanyName": "Equinix",
            "Address": "21051-290, Estrada Adhemar Bebiano, 1380 - Inhauma, Rio de Janeiro - RJ, 21051-070, Brazil",
            "City": "Rio de Janeiro",
            "Country": "Brazil",
            "Latitude": "-22.871382",
            "Longitude": "-43.273154",
            "AZs": "3",
            "DCInfo": "https://aws.amazon.com/directconnect/pricing/#AWS_Direct_Connect_data_transfer",
            "AWSRegion": "eu-west-3"
        },
        {
            "Type": "AWSDirectConnect",
            "Name": "Equinix SG2 (ap-southeast-1)",
            "CompanyName": "Equinix",
            "Address": "15 Pioneer Walk, Singapore 627753",
            "City": "Singapore",
            "Country": "Singapore ",
            "Latitude": "1.321811",
            "Longitude": "103.695382",
            "NetworkCount": "1",
            "website": "http://www.volico.com"
        },
        {
            "Type": "AWSDirectConnect",
            "Name": "Global Switch Singapore ap-southeast-1",
            "CompanyName": "Global Switch",
            "Address": "2 Tai Seng Ave, Singapore 534408",
            "Country": "Singapore 534408",
            "Latitude": "1.336723",
            "Longitude": "103.8938277",
            "NetworkCount": "3"
        },
        {
            "Type": "AWSDirectConnect",
            "Name": "Menara AIMS (ap-southeast-1)",
            "CompanyName": "Menara AIMS",
            "Address": "Changkat Raja Chulan, Bukit Ceylon, 50200 Kuala Lumpur, Wilayah Persekutuan Kuala Lumpur, Malaysia",
            "Country": "Malaysia",
            "Latitude": "3.149378",
            "Longitude": "101.7059593",
            "NetworkCount": "1",
            "website": "http://www.adaptivity.cz"
        },
        {
            "Type": "AWSDirectConnect",
            "Name": "NetMagic DC2 (ap-south-1)",
            "CompanyName": "NetMagic",
            "Address": "88/A, S V R Platina, Adjacent to K S S I D C Complex, Electronics City Phase 1, Bengaluru, Karnataka 560100, India",
            "Country": "India",
            "Latitude": "12.8396806",
            "Longitude": "77.6607512",
            "NetworkCount": "2",
            "website": "https://www.datacenter.it/data-center-aruba/italia-arezzo-dc-it1.aspx"
        },
        {
            "Type": "AWSDirectConnect",
            "Name": "STT GDC India Pvt. Ltd. VSB (ap-south-1)",
            "CompanyName": "STT GDC India Pvt. Ltd. ",
            "Address": "Videsh Sanchar Bhavan, No.4, Swami Sivananda Salai, Navalar Nagar, Chepauk, Triplicane, Chennai, Tamil Nadu 600002, India",
            "Country": "India",
            "Latitude": "13.0681666",
            "Longitude": "80.27899",
            "NetworkCount": "0",
            "website": "http://www.asia-tone.com/"
        },
        {
            "Type": "AWSDirectConnect",
            "Name": "STT Hyderabad DC1 (ap-south-1)",
            "CompanyName": "STT Hyderabad",
            "Address": "500081 Madhapur hyderabad, India",
            "City": "Hyderabad",
            "Country": "India",
            "Latitude": "17.441464",
            "Longitude": "78.377789",
            "NetworkCount": "0",
            "website": "https://www.bestline.net"
        },
        {
            "Type": "AWSDirectConnect",
            "Name": "GPX (ap-south-1)",
            "CompanyName": "GPX",
            "Address": "Unit A-001 Boomerang, Chandivali Rd, Chandivali, Andheri East, Mumbai, Maharashtra 400072, India",
            "Country": "India",
            "Latitude": "19.1138973",
            "Longitude": "72.8927801",
            "NetworkCount": "1",
            "website": "http://www.btc.bg"
        },
        {
            "Type": "AWSDirectConnect",
            "Name": "GPX (ap-southeast-1)",
            "CompanyName": "GPX",
            "Address": "Unit A-001 Boomerang, Chandivali Rd, Chandivali, Andheri East, Mumbai, Maharashtra 400072, India",
            "Country": "India",
            "Latitude": "19.1138973",
            "Longitude": "72.8927801",
            "NetworkCount": "0",
            "website": "http://www.ipserv.ro"
        },
        {
            "Type": "AWSDirectConnect",
            "Name": "Sify Rabale (ap-south-1)",
            "CompanyName": "Sify Rabale",
            "Address": "Plot No. R-847, 1/, T.T.C. Industrial Area, MIDC Industrial Area, Sector 2, Rabale, Navi Mumbai, Maharashtra 400701, India",
            "City": "Mumbai",
            "Country": "India",
            "Latitude": "19.1471373",
            "Longitude": "73.0141845",
            "NetworkCount": "1",
            "website": "https://www.cabotelecom.com.br"
        },
        {
            "Type": "AWSDirectConnect",
            "Name": "iAdvantage Mega-I (ap-southeast-1)",
            "CompanyName": "iAdvantage Mega-i",
            "Address": "399 Chai Wan Rd, Chai Wan, Hong Kong",
            "Country": "Hong Kong",
            "Latitude": "22.266066",
            "Longitude": "114.2465726",
            "NetworkCount": "104",
            "website": "http://www.cecolo.com/"
        },
        {
            "Type": "AWSDirectConnect",
            "Name": "Equinix DX1 (eu-west-1)",
            "CompanyName": "Equinix",
            "Address": "Dubai - United Arab Emirates",
            "City": "Dubai ",
            "Country": "UAE",
            "Latitude": "25.026499",
            "Longitude": "55.186956",
            "NetworkCount": "16",
            "website": "http://www.cogentco.com/fr/network_datacenters.php"
        },
        {
            "Type": "AWSDirectConnect",
            "Name": "Chunghwa Telecom, Taipei (ap-northeast-1)",
            "CompanyName": "Chunghwa Telecom",
            "Address": "10052, Taiwan, Taipei City, Zhongzheng District",
            "City": "Taipei City",
            "Country": "Taiwan",
            "Latitude": "25.042055",
            "Longitude": "121.519983",
            "NetworkCount": "14",
            "website": "http://www.coloatl.com/index.php"
        },
        {
            "Type": "AWSDirectConnect",
            "Name": "Chief Telecom LY (ap-northeast-1)",
            "CompanyName": "Chief Telecom LY",
            "Address": "114, Taiwan, Taipei City",
            "City": "Taipei City",
            "Country": "Taiwan",
            "Latitude": "25.070824",
            "Longitude": "121.582058",
            "NetworkCount": "4",
            "website": "http://www.colo4dallas.com/"
        },
        {
            "Type": "AWSDirectConnect",
            "Name": "Etisalat Smart Hub Data Center (eu-west-1)",
            "CompanyName": "Etisalat",
            "Address": "Eid Mussalla Rd - Fujairah - United Arab Emirates",
            "City": "Fujairah",
            "Country": "Emirates",
            "Latitude": "25.122955",
            "Longitude": "56.3369913",
            "NetworkCount": "1",
            "website": "http://www.colocationix.net/"
        },
        {
            "Type": "AWSDirectConnect",
            "Name": "Equinix MI1 us-east-1",
            "CompanyName": "Equinix",
            "Address": "50 NE 9th St, Miami, FL 33132",
            "City": "Miami",
            "Country": "USA",
            "Latitude": "25.7827494",
            "Longitude": "-80.1931518",
            "NetworkCount": "7"
        },
        {
            "Type": "AWSDirectConnect",
            "Name": "STT Delhi DC2 (ap-south-1)",
            "CompanyName": "STT ",
            "Address": "Next Gen Tower New IDC Building, Block E, Greater Kailash I, Greater Kailash, New Delhi, Delhi 110048, India",
            "City": "Delhi",
            "Country": "India",
            "Latitude": "28.5429133",
            "Longitude": "77.2403492",
            "NetworkCount": "0",
            "website": "https://www.arteria-net.com/en/business/service/datacenter/"
        },
        {
            "Type": "AWSDirectConnect",
            "Name": "CyrusOne West III (us-east-2)",
            "CompanyName": "CyrusOne",
            "Address": "4201 Southwest Fwy, Houston, TX 77027",
            "City": "Houston",
            "State": "TX",
            "Country": "USA",
            "Latitude": "29.728165",
            "Longitude": "-95.445093",
            "NetworkCount": "19",
            "website": "http://www.coresite.com"
        },
        {
            "Type": "AWSDirectConnect",
            "Name": "Equinix DA2 (us-east-1)",
            "CompanyName": "Equinix",
            "Address": "Infomart, 1950 N Stemmons Fwy #1034, Dallas, TX 75207",
            "City": "Dallas",
            "State": "TX",
            "Country": "USA",
            "Latitude": "32.800649",
            "Longitude": "-96.819203",
            "NetworkCount": "0",
            "website": "https://www.cyxtera.com/data-centers/locations"
        },
        {
            "Type": "AWSDirectConnect",
            "Name": "PhoenixNAP (us-west-2)",
            "CompanyName": "PhoenixNAP",
            "Address": "3402 E University Dr, Phoenix, AZ 85034",
            "Country": "AZ 85034",
            "Latitude": "33.4160099",
            "Longitude": "-112.009445",
            "NetworkCount": "0",
            "website": "http://server.ua"
        },
        {
            "Type": "AWSDirectConnect",
            "Name": "Digital Realty ATL1 (us-east-1)",
            "CompanyName": "Digital Realty",
            "Address": "56 Marietta St, Atlanta, GA 30303",
            "City": "Atlanta",
            "State": "GA",
            "Country": "USA",
            "Latitude": "33.755477",
            "Longitude": "-84.391451",
            "NetworkCount": "3",
            "website": "https://www.datacenter-leipzig.de"
        },
        {
            "Type": "AWSDirectConnect",
            "Name": "Equinix LA3 (us-west-2)",
            "CompanyName": "Equinix",
            "Address": "1920 E Maple Ave, El Segundo, CA 90245",
            "City": "El Segundo",
            "State": "CA",
            "Country": "USA",
            "Latitude": "33.926295",
            "Longitude": "-118.394057",
            "NetworkCount": "0",
            "website": "http://www.datahouse.eu"
        },
        {
            "Type": "AWSDirectConnect",
            "Name": "CoreSite LA1 (us-west-2)",
            "CompanyName": "CoreSite",
            "Address": "624 S Grand Ave Suite 110, Los Angeles, CA 90017",
            "City": "Los Angeles",
            "State": "CA",
            "Country": "USA",
            "Latitude": "34.047965",
            "Longitude": "-118.25539",
            "NetworkCount": "1",
            "website": "http://datavault.fi/en/"
        },
        {
            "Type": "AWSDirectConnect",
            "Name": "Equinix OS1 (ap-northeast-1)",
            "CompanyName": "Equinix",
            "Address": "Nishi Shinsaibashi Building,, 1-26-1 Shinmachi Nishi-ku, ???, Osaka 550-0013, Japan",
            "City": "Osaka",
            "Country": "Japan",
            "Latitude": "34.669932",
            "Longitude": "135.49856"
        },
        {
            "Type": "AWSDirectConnect",
            "Name": "Equinix TY2 (ap-northeast-1)",
            "CompanyName": "Equinix",
            "Address": "3 Chome-8-21 Higashishinagawa, Shinagawa, Tokyo 140-0002, Japan",
            "City": "Tokyo",
            "Country": "Japan",
            "Latitude": "35.6174062",
            "Longitude": "139.7480401",
            "NetworkCount": "147",
            "website": "http://www.digitalrealty.com"
        },
        {
            "Type": "AWSDirectConnect",
            "Name": "AT Tokyo Chuo Data Center (ap-northeast-1)",
            "CompanyName": "AT Tokyo Chuo",
            "Address": "Japan, ?135-0061 Tokyo, Koto, 6 Chome?2?12",
            "City": "Tokyo",
            "Country": "Japan",
            "Latitude": "35.648612",
            "Longitude": "139.792591",
            "NetworkCount": "0",
            "website": "https://www.digitalrealty.com"
        },
        {
            "Type": "AWSDirectConnect",
            "Name": "Switch SUPERNAP 8 (us-west-1)",
            "CompanyName": "Switch",
            "Address": "5225 W Capovilla Ave, Las Vegas, NV 89118",
            "City": "Las Vegas",
            "State": "NV",
            "Country": "USA",
            "Latitude": "36.0578448",
            "Longitude": "-115.2141846",
            "NetworkCount": "1",
            "website": "https://www.digitalrealty.com"
        },
        {
            "Type": "AWSDirectConnect",
            "Name": "Industrial Park IDC (cn-north-1)",
            "CompanyName": "Industrial Park IDC",
            "Address": "Ningxia, China",
            "Country": "China",
            "Latitude": "37.198731",
            "Longitude": "106.1580937",
            "NetworkCount": "4",
            "website": "http://www.ebrc.lu/"
        },
        {
            "Type": "AWSDirectConnect",
            "Name": "Shapotou IDC (cn-northwest-1)",
            "CompanyName": "Shapotou",
            "Address": "Ningxia, China",
            "City": "Ningxia",
            "Country": "China",
            "Latitude": "37.198731",
            "Longitude": "106.1580937",
            "NetworkCount": "7",
            "website": "http://www.ebrc.lu"
        },
        {
            "Type": "AWSDirectConnect",
            "Name": "Equinix SV5 (us-gov-1)",
            "CompanyName": "Equinix",
            "Address": "11 Great Oaks Blvd, San Jose, CA 95119",
            "City": "San Jose",
            "Country": "CA 95119",
            "Latitude": "37.241538",
            "Longitude": "-121.783485",
            "NetworkCount": "1",
            "website": "http://www.ecostora.com"
        },
        {
            "Type": "AWSDirectConnect",
            "Name": "Equinix SV5 (us-west-2)",
            "CompanyName": "Equinix",
            "Address": "11 Great Oaks Blvd, San Jose, CA 95119",
            "City": "San Jose",
            "Country": "CA 95119",
            "Latitude": "37.241538",
            "Longitude": "-121.783485",
            "NetworkCount": "1"
        },
        {
            "Type": "AWSDirectConnect",
            "Name": "CoreSite SV4 (us-west-2)",
            "CompanyName": "CoreSite",
            "Address": "3005 Coronado Dr, Santa Clara, CA 95054",
            "City": "Santa Clara",
            "State": "CA",
            "Country": "USA",
            "Latitude": "37.376306",
            "Longitude": "-121.971963",
            "NetworkCount": "0",
            "website": "https://elementcritical.com/"
        },
        {
            "Type": "AWSDirectConnect",
            "Name": "CoreSite SV2 (us-west-2)",
            "CompanyName": "CoreSite",
            "Address": "1656 McCarthy Blvd, Milpitas, CA 95035",
            "City": "Milpitas",
            "State": "CA",
            "Country": "USA",
            "Latitude": "37.405755",
            "Longitude": "-121.916188",
            "NetworkCount": "0",
            "website": "http://www.enta.net"
        },
        {
            "Type": "AWSDirectConnect",
            "Name": "KINX Seoul (ap-northeast-2)",
            "CompanyName": "KINX",
            "Address": "396 Seocho-daero, Seocho-dong, Seocho-gu, Seoul, South Korea",
            "Country": "South Korea",
            "Latitude": "37.4965304",
            "Longitude": "127.024758",
            "NetworkCount": "174",
            "website": "http://www.equinix.com/locations/"
        },
        {
            "Type": "AWSDirectConnect",
            "Name": "LG U+ Pyeong-Chon Mega Center, Seoul (ap-northeast-2)",
            "CompanyName": "LG U+ Pyeong-Chon",
            "Address": "LG U+ Pyeong-Chon Mega Center, Seoul, South Korea",
            "Country": "South Korea",
            "Latitude": "37.566535",
            "Longitude": "126.9779692",
            "NetworkCount": "1",
            "website": "http://www.equinix.com"
        },
        {
            "Type": "AWSDirectConnect",
            "Name": "CoreSite VA1 (us-east-1)",
            "CompanyName": "CoreSite",
            "Address": "12100 Sunrise Valley Dr, Reston, VA 20191",
            "City": "Reston",
            "State": "VA",
            "Country": "USA",
            "Latitude": "38.950612",
            "Longitude": "-77.364553",
            "NetworkCount": "17"
        },
        {
            "Type": "AWSDirectConnect",
            "Name": "AWS DC @Equinix DC 11 (us-east-1)",
            "CompanyName": "Equinix",
            "City": "Ashburn",
            "State": "VA",
            "Country": "USA",
            "Latitude": "39.015023",
            "Longitude": "-77.4586097",
            "NetworkCount": "31",
            "website": "http://www.equinix.com/"
        },
        {
            "Type": "AWSDirectConnect",
            "Name": "AWS DC @Equinix DC2 (us-east-1)",
            "CompanyName": "Equinix",
            "Address": "21715 Filigree Ct, Ashburn, VA 20147",
            "City": "Ashburn",
            "State": "VA",
            "Country": "USA",
            "Latitude": "39.0163627",
            "Longitude": "-77.4590225",
            "NetworkCount": "7",
            "website": "https://www.e-shelter.de/de/location/datacenter-frankfurt-3"
        },
        {
            "Type": "AWSDirectConnect",
            "Name": "Netrality Properties  (us-east-2)",
            "CompanyName": "Netrality Properties ",
            "Address": "153 E 11th St, Kansas City, MO 64106",
            "Country": "MO 64106",
            "Latitude": "39.100974",
            "Longitude": "-94.5811351",
            "NetworkCount": "2",
            "website": "http://www.euNetworks.com"
        },
        {
            "Type": "AWSDirectConnect",
            "Name": "CIDS Jiachuang IDC, Beijing (sa-east-1)",
            "CompanyName": "CIDS China",
            "Address": "Beijing, China",
            "City": "Beijing",
            "Country": "China",
            "Latitude": "39.744224",
            "Longitude": "116.596877",
            "NetworkCount": "1",
            "website": "https://www.flexential.com/"
        },
        {
            "Type": "AWSDirectConnect",
            "Name": "CoreSite DE1 (us-west-1)",
            "CompanyName": "CoreSite",
            "Address": "910 15th St #740, Denver, CO 80202",
            "City": "Denver",
            "State": "CO",
            "Country": "USA",
            "Latitude": "39.745628",
            "Longitude": "-104.995711",
            "NetworkCount": "1",
            "website": "https://www.flexential.com/"
        },
        {
            "Type": "AWSDirectConnect",
            "Name": "Sinnet Jiuxianqiao IDC (cn-north-1)",
            "CompanyName": "Sinnet Jiuxianqiao",
            "Address": "Beijing, China",
            "City": "Beiging",
            "Country": "China",
            "Latitude": "39.9041999",
            "Longitude": "116.4073963",
            "NetworkCount": "3",
            "website": "https://www.flexential.com/"
        },
        {
            "Type": "AWSDirectConnect",
            "Name": "AWS DC @Lightower Philadelphia (us-east-1)",
            "CompanyName": "Lightower",
            "Address": "401 N Broad St, Philadelphia, PA 19108",
            "City": "Philadelphia",
            "Country": "USA",
            "Latitude": "39.9597186",
            "Longitude": "-75.1615688",
            "NetworkCount": "48"
        },
        {
            "Type": "AWSDirectConnect",
            "Name": "Cologix COL2 (us-east-2)",
            "CompanyName": "Cologix",
            "Address": "555 Scherers Ct, Columbus, OH 43085",
            "City": "Columbus",
            "Country": "USA",
            "Latitude": "40.1158377",
            "Longitude": "-83.0023992",
            "NetworkCount": "2",
            "Description": "POP localisÃ© au Centre Technique National 1 du Backbone Nationale Fibre Optique.",
            "website": "http://www.gabix.ga"
        },
        {
            "Type": "AWSDirectConnect",
            "Name": "Interxion MAD2 (eu-central-1)",
            "CompanyName": "Interxion",
            "Address": "Calle de Albasanz, 73, 28037 Madrid, Spain",
            "City": "Interxion, Madrid",
            "Country": "Spain",
            "Latitude": "40.4396854",
            "Longitude": "-3.6209491",
            "NetworkCount": "0",
            "website": "http://gw.spb.ru"
        },
        {
            "Type": "AWSDirectConnect",
            "Name": "Equinix ITConic MD2 (eu-central-1)",
            "CompanyName": "Equinix",
            "Address": "Calle Valgrande, 6, 28108 Madrid, Spain",
            "City": "Madrid",
            "Country": "Spain",
            "Latitude": "40.53692",
            "Longitude": "-3.648584",
            "NetworkCount": "102",
            "website": "http://www.gpxglobal.net"
        },
        {
            "Type": "AWSDirectConnect",
            "Name": "CoreSite NY1 (us-east-1)",
            "CompanyName": "Coresite",
            "Address": "32 6th Ave Suite 700, New York, NY 10013",
            "City": "New York",
            "State": "NY",
            "Country": "USA",
            "Latitude": "40.7204125",
            "Longitude": "-74.0046144",
            "NetworkCount": "0",
            "website": "http://www.heliantis.fr/"
        },
        {
            "Type": "AWSDirectConnect",
            "Name": "165 Halsey Street us-east-1 (us-east-1)",
            "CompanyName": "165 Halsey Street",
            "Address": "165 Halsey Street",
            "City": "Newark",
            "State": "NJ",
            "Country": "USA",
            "Latitude": "40.736836",
            "Longitude": "-74.173477",
            "NetworkCount": "4",
            "website": "http://www.hiberniaatlantic.com/"
        },
        {
            "Type": "AWSDirectConnect",
            "Name": "AWS DC @QTS Chicago (us-east-2)",
            "CompanyName": "QTS",
            "Address": "2800 S Ashland Ave, Chicago, IL 60608",
            "City": "Chicago",
            "Country": "USA",
            "Latitude": "41.8418952",
            "Longitude": "-87.6683063",
            "NetworkCount": "4",
            "website": "http://www.internexa.com"
        },
        {
            "Type": "AWSDirectConnect",
            "Name": "Equinix CH2, Chicago (us-east-2)",
            "CompanyName": "Equinix",
            "Address": "350 E Cermak Rd, Chicago, IL 60616",
            "City": "Chicago",
            "State": "IL",
            "Country": "USA",
            "Latitude": "41.853717",
            "Longitude": "-87.618231",
            "NetworkCount": "2",
            "website": "http://www.sara.nl"
        },
        {
            "Type": "AWSDirectConnect",
            "Name": "Markley us-east-1",
            "CompanyName": "Markley",
            "Address": "1 Summer St, Boston, MA 02110",
            "City": "Boston",
            "State": "MA",
            "Country": "USA",
            "Latitude": "42.3546992",
            "Longitude": "-71.0602708",
            "NetworkCount": "3",
            "website": "http://www.itandtel.at"
        },
        {
            "Type": "AWSDirectConnect",
            "Name": "Interxion MRS1 (eu-west-1)",
            "CompanyName": "Interxion",
            "Address": "40 Avenue Roger Salengro, 13003 Marseille, France",
            "City": "Interxion, Marseille",
            "Country": "France",
            "Latitude": "43.3103805",
            "Longitude": "5.3733422",
            "NetworkCount": "3",
            "website": "http://les.net/"
        },
        {
            "Type": "AWSDirectConnect",
            "Name": "Allied (us-east-2)",
            "CompanyName": "Allied",
            "Address": "151 Front St W, Toronto, ON M5J 2N1, Canada",
            "City": "Toronto",
            "Country": "Canada",
            "Latitude": "43.644742",
            "Longitude": "-79.384149",
            "NetworkCount": "2",
            "website": "http://www.lightedge.com"
        },
        {
            "Type": "AWSDirectConnect",
            "Name": "Cologix MIN3, Minneapolis (us-east-2)",
            "CompanyName": "Cologix",
            "Address": "511 11th Ave S, Minneapolis, MN 55415",
            "City": "Minneapolis",
            "State": "MN",
            "Country": "USA",
            "Latitude": "44.971439",
            "Longitude": "-93.25458",
            "NetworkCount": "2",
            "website": "http://www.mtu.edu/"
        },
        {
            "Type": "AWSDirectConnect",
            "Name": "Cologix MTL3 (ca-central-1)",
            "CompanyName": "Cologix MTL3",
            "Address": "1250 René-Lévesque Blvd W, Montreal, QC H3B 4W8, Canada",
            "City": "Montreal",
            "Country": "Canada",
            "Latitude": "45.49718",
            "Longitude": "-73.570482",
            "NetworkCount": "0",
            "website": "http://www.netglobalis.net"
        },
        {
            "Type": "AWSDirectConnect",
            "Name": "eStruxture Montréal (ca-central-1)",
            "CompanyName": "eStruxture",
            "Address": "800 Rue du Square-Victoria, Montréal, QC H4Z 1B7, Canada",
            "City": "Montréal",
            "Country": "Canada",
            "Latitude": "45.5003412",
            "Longitude": "-73.5620714",
            "AWSDCOnRamp": "ap-south-1",
            "AWSRegionName": "Asia Pacific (Mumbai)",
            "AWSRegion": "ap-south-1"
        },
        {
            "Type": "AWSDirectConnect",
            "Name": "Pittock Block (us-west-1)",
            "CompanyName": "Pittock Block",
            "Address": "409 SW 9th Ave, Portland, OR 97205",
            "Country": "OR 97205",
            "Latitude": "45.5215856",
            "Longitude": "-122.6802801",
            "NetworkCount": "0",
            "website": "http://www.netsolus.com"
        },
        {
            "Type": "AWSDirectConnect",
            "Name": "EdgeConneX (us-west-1)",
            "CompanyName": "EdgeConneX",
            "Address": "23245 NE Bennett St, Hillsboro, OR 97124",
            "City": "Hillsboro",
            "State": "OR",
            "Country": "USA",
            "Latitude": "45.554834",
            "Longitude": "-122.918184",
            "NetworkCount": "31",
            "website": "http://www.newcolo.de"
        },
        {
            "Type": "AWSDirectConnect",
            "Name": "Interxion ZUR1 (eu-central-1)",
            "CompanyName": "Interxion",
            "Address": "Sägereistrasse 35 Glattbrugg, 8152 Opfikon, Switzerland",
            "City": "Interxion, Zurich",
            "Country": "Switzerland",
            "Latitude": "47.4326816",
            "Longitude": "8.5573111"
        },
        {
            "Type": "AWSDirectConnect",
            "Name": "Equinix SE2 (us-west-1)",
            "CompanyName": "Equinix",
            "Address": "2001 6th Ave Suite 1202, Seattle, WA 98121",
            "City": "Seattle",
            "State": "WA ",
            "Country": "USA",
            "Latitude": "47.614394",
            "Longitude": "-122.338939",
            "NetworkCount": "1",
            "website": "http://www.plusline.de"
        },
        {
            "Type": "AWSDirectConnect",
            "Name": "TierPoint (eu-west-1)",
            "CompanyName": "TierPoint",
            "Address": "140 4th Ave N #360, Seattle, WA 98109",
            "City": "Seattle",
            "State": "WA ",
            "Country": "USA",
            "Latitude": "47.619496",
            "Longitude": "-122.348121",
            "NetworkCount": "2",
            "website": "http://www.horyzont.net/"
        },
        {
            "Type": "AWSDirectConnect",
            "Name": "Equinix MU1 (eu-central-1)",
            "CompanyName": "Equinix",
            "Address": "Seidlstraße 3, 80335 München, Germany",
            "City": "Munich",
            "Country": "Germany",
            "Latitude": "48.143034",
            "Longitude": "11.555862",
            "NetworkCount": "9",
            "website": "http://www.bluesquaredata.com"
        },
        {
            "Type": "AWSDirectConnect",
            "Name": "Interxion VIE2 (eu-central-1)",
            "CompanyName": "Interxion",
            "Address": "Louis-Häfliger-Gasse 10, 1210 Wien, Austria",
            "City": "Interxion, Vienna",
            "Country": "Austria",
            "Latitude": "48.2690269",
            "Longitude": "16.4106131",
            "NetworkCount": "1",
            "website": "http://www.rackanddata.com"
        },
        {
            "Type": "AWSDirectConnect",
            "Name": "Telehouse Voltaire (eu-central-1)",
            "CompanyName": "Telehouse Voltaire",
            "Address": "Paris, France",
            "City": "Paris",
            "Country": "France",
            "Latitude": "48.856614",
            "Longitude": "2.3522219",
            "NetworkCount": "3",
            "website": "http://www.revera.co.nz/"
        },
        {
            "Type": "AWSDirectConnect",
            "Name": "Telehouse Voltaire (eu-west-3)",
            "CompanyName": "Telehouse Voltaire",
            "Address": "Paris, France",
            "City": "Paris",
            "Country": "France",
            "Latitude": "48.856614",
            "Longitude": "2.3522219",
            "NetworkCount": "4",
            "website": "http://www.revera.co.nz/"
        },
        {
            "Type": "AWSDirectConnect",
            "Name": "Interxion PAR7 (eu-west-3)",
            "CompanyName": "Interxion",
            "Address": "129 Boulevard Malesherbes, 75017 Paris, France",
            "Country": "France",
            "Latitude": "48.8813982",
            "Longitude": "2.3115264",
            "NetworkCount": "1",
            "website": "http://www.resolv.fr"
        },
        {
            "Type": "AWSDirectConnect",
            "Name": "Equinix PA3 (eu-west-3)",
            "CompanyName": "Equinix",
            "Address": "114 Rue Ambroise Croizat, 93200 Saint-Denis, France",
            "City": "Saint-Denis",
            "Country": "France",
            "Latitude": "48.926977",
            "Longitude": "2.35063",
            "NetworkCount": "3",
            "website": "http://www.secureit.lu"
        },
        {
            "Type": "AWSDirectConnect",
            "Name": "Cologix VAN2 (ca-central-1)",
            "CompanyName": "Cologix",
            "Address": "1050 W Pender St, Vancouver, BC V7X 1K8, Canada",
            "City": "Vancouver",
            "Country": "Canada",
            "Latitude": "49.287029",
            "Longitude": "-123.119507",
            "NetworkCount": "0",
            "website": "http://www.shabdiznet.com/"
        },
        {
            "Type": "AWSDirectConnect",
            "Name": "CE Colo (eu-central-1)",
            "CompanyName": "CE Colo",
            "Address": "Nad Elektrárnou 1428/47, 106 00 Praha 10, Czechia",
            "City": "Praha",
            "Country": "Czechia",
            "Latitude": "50.060137",
            "Longitude": "14.482989",
            "NetworkCount": "0",
            "website": "http://soulaustralia.com.au"
        },
        {
            "Type": "AWSDirectConnect",
            "Name": "Equinix FR5 (eu-central-1)",
            "CompanyName": "Equinix",
            "Address": "Kleyerstraße 90, 60326 Frankfurt am Main, Germany",
            "City": "Frankfurt",
            "Country": "Germany",
            "Latitude": "50.098896",
            "Longitude": "8.632019",
            "NetworkCount": "7",
            "website": "http://www.stokab.se"
        },
        {
            "Type": "AWSDirectConnect",
            "Name": "Interxion FRA6 (eu-central-1)",
            "CompanyName": "Interxion",
            "Address": "Hanauer Landstraße 298, 60314 Frankfurt am Main, Germany",
            "City": "Frankfurt",
            "Country": "Germany",
            "Latitude": "50.1203167",
            "Longitude": "8.7376285",
            "NetworkCount": "3"
        },
        {
            "Type": "AWSDirectConnect",
            "Name": "Digital Realty (UK) Docklands eu-west-1",
            "CompanyName": "Digital Realty",
            "Address": "40 Gracechurch St, London EC3V 0BT, UK",
            "City": "London",
            "Country": "England",
            "Latitude": "51.4969751",
            "Longitude": "-0.0189382",
            "NetworkCount": "2",
            "website": "http://www.turbozoneinternet.com.br"
        },
        {
            "Type": "AWSDirectConnect",
            "Name": "Digital Realty (UK) Docklands eu-west-2",
            "CompanyName": "Digital Realty",
            "Address": "40 Gracechurch St, London EC3V 0BT, UK",
            "City": "London",
            "Country": "England",
            "Latitude": "51.4969751",
            "Longitude": "-0.0189382",
            "NetworkCount": "2",
            "website": "http://www.turk.net"
        },
        {
            "Type": "AWSDirectConnect",
            "Name": "Telehouse West London (eu-west-2)",
            "CompanyName": "Telehouse West",
            "Address": "Coriander Ave, Poplar, London E14 2AA, UK",
            "City": "London",
            "Country": "England",
            "Latitude": "51.5115197",
            "Longitude": "-0.0030745",
            "NetworkCount": "0"
        },
        {
            "Type": "AWSDirectConnect",
            "Name": "Equinix LD5 eu-west-1",
            "CompanyName": "Equinix",
            "Address": "Slough Trading Estate, 8 Buckingham Ave, Slough SL1 4AX, UK",
            "City": "Slough",
            "Country": "England",
            "Latitude": "51.5225396",
            "Longitude": "-0.6290424",
            "NetworkCount": "0",
            "website": "http://www.usinternet.com"
        },
        {
            "Type": "AWSDirectConnect",
            "Name": "Equinix LD5 eu-west-2",
            "CompanyName": "Equinix",
            "Address": "Slough Trading Estate, 8 Buckingham Ave, Slough SL1 4AX, UK",
            "City": "Slough",
            "Country": "England",
            "Latitude": "51.5225396",
            "Longitude": "-0.6290424",
            "NetworkCount": "0"
        },
        {
            "Type": "AWSDirectConnect",
            "Name": "Equinix WA1 (eu-central-1)",
            "CompanyName": "Equinix",
            "Address": "Aleje Jerozolimskie 65, 00-697 Warszawa, Poland, 00-697 Warszawa, Poland",
            "City": "Warszawa",
            "Country": "Poland",
            "Latitude": "52.2277179",
            "Longitude": "21.005015",
            "NetworkCount": "2",
            "website": "https://xconnect.co.in"
        },
        {
            "Type": "AWSDirectConnect",
            "Name": "Equinix AM3 (eu-central-1)",
            "CompanyName": "Equinix",
            "Address": "Science Park 610, 1098 XH Amsterdam, Netherlands",
            "City": "Amsterdam",
            "Country": "Netherlands",
            "Latitude": "52.354938",
            "Longitude": "4.960965",
            "AZs": "3"
        },
        {
            "Type": "AWSDirectConnect",
            "Name": "Interxion AMS7 (eu-central-1)",
            "CompanyName": "Interxion",
            "Address": "Science Park 121, 1098 XG Amsterdam, Netherlands",
            "City": "Amsterdam",
            "Country": "Netherlands",
            "Latitude": "52.356106",
            "Longitude": "4.9528036",
            "AZs": "3"
        },
        {
            "Type": "AWSDirectConnect",
            "Name": "IPB Berlin (eu-central-1)",
            "CompanyName": "IPB",
            "Address": "Lützowstraße 106, 10785 Berlin, Germany",
            "Country": "Germany",
            "Latitude": "52.50202",
            "Longitude": "13.36934",
            "website": "http://www.nix.cz/",
            "PeakTrafficGbps": "560"
        },
        {
            "Type": "AWSDirectConnect",
            "Name": "Interxion DUB2 eu-west-1",
            "CompanyName": "Interxion",
            "Address": "Interxion Ireland DAC, Unit 24 Hume Ave, Park West Business Park, Dublin, D12 YY88, Ireland",
            "City": "Dublin",
            "Country": "Ireland",
            "Latitude": "53.3309013",
            "Longitude": "-6.3622171",
            "website": "https://ix.equinix.com",
            "Members": "66"
        },
        {
            "Type": "AWSDirectConnect",
            "Name": "Eircom Clonshaugh eu-west-1",
            "CompanyName": "Eircom Clonshaugh",
            "Address": "21, Northside Shopping Centre, Coolock, D5, Ireland",
            "City": "Coolock",
            "Country": "Ireland",
            "Latitude": "53.4128168",
            "Longitude": "-6.210891",
            "website": "https://megaport.com"
        },
        {
            "Type": "AWSDirectConnect",
            "Name": "Equinix MA3 eu-west-2",
            "CompanyName": "Equinix",
            "Address": "Joule House, 76 Trafford Wharf Rd, Stretford, Manchester M17 1HE, UK",
            "City": "Manchester",
            "Country": "England",
            "Latitude": "53.4680561",
            "Longitude": "-2.2935659",
            "website": "http://www.sdsc.edu/sdnap/"
        },
        {
            "Type": "AWSDirectConnect",
            "Name": "Interxion CPH2  (eu-central-1)",
            "CompanyName": "Interxion",
            "Address": "Industriparken 20A, 2750 Ballerup, Denmark",
            "Country": "Denmark",
            "Latitude": "55.728092",
            "Longitude": "12.3774821",
            "website": "http://www.communityix.org"
        },
        {
            "Type": "AWSDirectConnect",
            "Name": "Equinix SK1 (eu-north-1)",
            "CompanyName": "Equinix",
            "Address": "Mariehällsvägen 36, 168 65 Bromma, Sweden",
            "City": "Bromma",
            "Country": "Sweden",
            "Latitude": "59.36249",
            "Longitude": "17.956598",
            "website": "http://www.hawaii-ix.org/"
        },
        {
            "Type": "AWSDirectConnect",
            "Name": "Interxion STO1 (eu-central-1)",
            "CompanyName": "Interxion",
            "Address": "Esbogatan 11, 164 74 Kista, Sweden",
            "City": "Interxion, Stockholm",
            "Country": "Sweden",
            "Latitude": "59.422699",
            "Longitude": "17.9162373",
            "website": "http://www.iix.net.id"
        },
        {
            "Type": "AWSDirectConnect",
            "Name": "DigiPlex Ulven (eu-central-1)",
            "CompanyName": "DigiPlex Ulven",
            "Address": "1, Selma Ellefsens Vei, 0581 Oslo, Norway",
            "City": "Oslo",
            "Country": "Norway",
            "Latitude": "59.925089",
            "Longitude": "10.808961",
            "website": "http://ix.br/"
        },
        {
            "Type": "AWSDirectConnect",
            "Name": "Equinix HE6 (eu-central-1)",
            "CompanyName": "Equinix",
            "Address": "02630 Espoo Finland, Sinimäentie 12, 02630 Espoo, Finland",
            "City": "Espoo",
            "Country": "Finland",
            "Latitude": "60.203148",
            "Longitude": "24.778469",
            "website": "https://www.tespok.co.ke/"
        },
        {
            "Type": "Azure",
            "Name": "Azure Australia Southeast",
            "CompanyName": "Microsoft",
            "Latitude": "-37.5126013",
            "Longitude": "144.9572383"
        },
        {
            "Type": "Azure",
            "Name": "Azure Australia Central 2",
            "CompanyName": "Microsoft",
            "Latitude": "-35.5009282",
            "Longitude": "149.1503906"
        },
        {
            "Type": "Azure",
            "Name": "Azure Australia Central",
            "CompanyName": "Microsoft",
            "Latitude": "-35.0404763",
            "Longitude": "149.2382813"
        },
        {
            "Type": "Azure",
            "Name": "Azure South Africa West (announced)",
            "CompanyName": "Microsoft",
            "Latitude": "-33.9498193",
            "Longitude": "18.4629775"
        },
        {
            "Type": "Azure",
            "Name": "Azure Australia East",
            "CompanyName": "Microsoft",
            "Latitude": "-33.4894587",
            "Longitude": "148.9599974"
        },
        {
            "Type": "Azure",
            "Name": "Azure Brazil South",
            "CompanyName": "Microsoft",
            "City": "Sao Paulo",
            "Country": "Brazil",
            "Latitude": "-23.8925678",
            "Longitude": "-47.808875"
        },
        {
            "Type": "Azure",
            "Name": "Azure Southeast Asia",
            "CompanyName": "Microsoft",
            "Latitude": "1.345245",
            "Longitude": "103.8439167",
            "NetworkCount": "18",
            "website": "http://910telecom.com"
        },
        {
            "Type": "Azure",
            "Name": "Azure South India",
            "CompanyName": "Microsoft",
            "Latitude": "13.1374391",
            "Longitude": "80.2235413",
            "NetworkCount": "0",
            "website": "https://arn-fai.net"
        },
        {
            "Type": "Azure",
            "Name": "Azure Central India",
            "CompanyName": "Microsoft",
            "Latitude": "18.5635984",
            "Longitude": "73.8460911",
            "NetworkCount": "1",
            "website": "http://www.intercity.technology/"
        },
        {
            "Type": "Azure",
            "Name": "Azure West India",
            "CompanyName": "Microsoft",
            "Latitude": "19.152952",
            "Longitude": "72.9029869",
            "NetworkCount": "18",
            "website": "http://www.caldera21.com"
        },
        {
            "Type": "Azure",
            "Name": "Azure East Asia",
            "CompanyName": "Microsoft",
            "Latitude": "22.4364176",
            "Longitude": "114.1484023",
            "NetworkCount": "1",
            "website": "http://www.citynethost.com"
        },
        {
            "Type": "Azure",
            "Name": "Azure UAE Central (announced)",
            "CompanyName": "Microsoft",
            "Latitude": "24.3921303",
            "Longitude": "54.5768715",
            "NetworkCount": "3",
            "website": "http://www.cogentco.com/"
        },
        {
            "Type": "Azure",
            "Name": "Azure UAE North (announced)",
            "CompanyName": "Microsoft",
            "Latitude": "25.1452846",
            "Longitude": "55.2658103",
            "NetworkCount": "1",
            "website": "http://www.ColocationIX.net"
        },
        {
            "Type": "Azure",
            "Name": "Azure South Africa North (announced)",
            "CompanyName": "Microsoft",
            "Latitude": "26.1952879",
            "Longitude": "28.029213",
            "NetworkCount": "23",
            "website": "http://www.cologix.com/"
        },
        {
            "Type": "Azure",
            "Name": "Azure South Central US",
            "CompanyName": "Microsoft",
            "City": "San Antonio",
            "Country": "USA",
            "Latitude": "29.350747",
            "Longitude": "-98.541909",
            "NetworkCount": "1"
        },
        {
            "Type": "Azure",
            "Name": "Azure US Gov Texas",
            "CompanyName": "Microsoft",
            "Latitude": "30.4865508",
            "Longitude": "-99.5141602",
            "NetworkCount": "10",
            "website": "http://www.ctrls.in"
        },
        {
            "Type": "Azure",
            "Name": "Azure China East 2",
            "CompanyName": "Microsoft",
            "Latitude": "31.0792013",
            "Longitude": "121.4291382",
            "NetworkCount": "1",
            "website": "https://www.cwcs.co.uk/data-centres/nottingham"
        },
        {
            "Type": "Azure",
            "Name": "Azure China East",
            "CompanyName": "Microsoft",
            "Latitude": "31.128987",
            "Longitude": "121.4689636",
            "NetworkCount": "0",
            "website": "http://www.csf-group.com"
        },
        {
            "Type": "Azure",
            "Name": "Azure US Gov Arizona",
            "CompanyName": "Microsoft",
            "Latitude": "33.6542718",
            "Longitude": "-111.9524964",
            "NetworkCount": "3",
            "website": "http://www.databank.com"
        },
        {
            "Type": "Azure",
            "Name": "Japan West",
            "CompanyName": "Microsoft",
            "Latitude": "34.6935205",
            "Longitude": "135.4971888",
            "Description": "This is labled as a Blue Cross Blue Shield Equinix facility",
            "AzureExpressRoute": "Y"
        },
        {
            "Type": "Azure",
            "Name": "Azure Korea South",
            "CompanyName": "Microsoft",
            "Latitude": "35.1694107",
            "Longitude": "129.0761959",
            "AWSDCOnRamp": ",eu-west-2"
        },
        {
            "Type": "Azure",
            "Name": "Azure Japan East",
            "CompanyName": "Microsoft",
            "Latitude": "35.8462043",
            "Longitude": "139.6508766",
            "NetworkCount": "0",
            "Description": "fka: Sentrum",
            "website": "https://www.digitalrealty.com"
        },
        {
            "Type": "Azure",
            "Name": "Azure US Security West",
            "CompanyName": "Microsoft",
            "City": "San Jose",
            "Country": "USA",
            "Latitude": "37.3457769",
            "Longitude": "-121.9775414",
            "NetworkCount": "2",
            "website": "http://www.edgeconnex.com"
        },
        {
            "Type": "Azure",
            "Name": "Azure West US",
            "CompanyName": "Microsoft",
            "City": "San Jose",
            "Country": "USA",
            "Latitude": "37.3530585",
            "Longitude": "-121.9976807",
            "NetworkCount": "5",
            "website": "http://www.edgeconnex.com"
        },
        {
            "Type": "Azure",
            "Name": "Azure Seoul",
            "CompanyName": "Microsoft",
            "Latitude": "37.6276459",
            "Longitude": "126.9087994",
            "NetworkCount": "27",
            "website": "http://www.equinix.com"
        },
        {
            "Type": "Azure",
            "Name": "Azure US East 2",
            "CompanyName": "Microsoft",
            "City": "Ashburn",
            "State": "VA",
            "Country": "USA",
            "Latitude": "39.0110255",
            "Longitude": "-77.4640703",
            "AWSDCOnRamp": "ap-northeast-1"
        },
        {
            "Type": "Azure",
            "Name": "Azure US Security East",
            "CompanyName": "Microsoft",
            "City": "Ashburn",
            "State": "VA",
            "Country": "USA",
            "Latitude": "39.016827",
            "Longitude": "-77.4769592",
            "NetworkCount": "0"
        },
        {
            "Type": "Azure",
            "Name": "Azure US East 1",
            "CompanyName": "Microsoft",
            "Latitude": "39.018428",
            "Longitude": "-77.4619532",
            "NetworkCount": "1",
            "website": "http://www.esolutionsgroup.ca/en/products/datacentre.asp"
        },
        {
            "Type": "Azure",
            "Name": "Azure Gov Virginia",
            "CompanyName": "Microsoft",
            "City": "Ashburn",
            "State": "VA",
            "Country": "USA",
            "Latitude": "39.0223405",
            "Longitude": "-77.4520683",
            "NetworkCount": "1",
            "website": "http://etice.ce.gov.br/"
        },
        {
            "Type": "Azure",
            "Name": "Azure US DoD East",
            "CompanyName": "Microsoft",
            "City": "Ashburn",
            "State": "VA",
            "Country": "USA",
            "Latitude": "39.024829",
            "Longitude": "-77.4587065",
            "NetworkCount": "3",
            "website": "http://www.globalvoice.ie"
        },
        {
            "Type": "Azure",
            "Name": "Azure China North",
            "CompanyName": "Microsoft",
            "Latitude": "39.9518589",
            "Longitude": "116.3557411",
            "NetworkCount": "2",
            "website": "https://www.flexential.com/"
        },
        {
            "Type": "Azure",
            "Name": "Azure China North 2",
            "CompanyName": "Microsoft",
            "Latitude": "39.9708057",
            "Longitude": "116.3914467",
            "NetworkCount": "2",
            "website": "http://www.fujitsu.com/au/services/infrastructure-services/datacentre/perth_dc.html"
        },
        {
            "Type": "Azure",
            "Name": "Azure Central US",
            "CompanyName": "Microsoft",
            "City": "Des Moines",
            "Country": "USA",
            "Latitude": "41.578464",
            "Longitude": "-93.676556",
            "NetworkCount": "9",
            "website": "https://www.interconnectmiami.com/"
        },
        {
            "Type": "Azure",
            "Name": "Azure West Central US",
            "CompanyName": "Microsoft",
            "City": "Wyoming",
            "Country": "USA",
            "Latitude": "41.8122671",
            "Longitude": "-109.2755127",
            "NetworkCount": "10"
        },
        {
            "Type": "Azure",
            "Name": "Azure US Gov Iowa",
            "CompanyName": "Microsoft",
            "Latitude": "41.8969107",
            "Longitude": "-91.6454327",
            "NetworkCount": "66",
            "website": "http://www.interxion.com"
        },
        {
            "Type": "Azure",
            "Name": "Azure US DoD Central",
            "CompanyName": "Microsoft",
            "Latitude": "41.9016817",
            "Longitude": "-91.6307831",
            "AWSDCOnRamp": "eu-central-1",
            "AWSRegionName": "EU Central (Frankfurt)",
            "AWSRegion": "eu-central-1",
            "BeginLatitude": "47.4326816",
            "BeginLongitude": "8.5573111",
            "EndLatitude": "50.115735",
            "EndLongitude": "8.6501335"
        },
        {
            "Type": "Azure",
            "Name": "Azure North Central US",
            "CompanyName": "Microsoft",
            "City": "Chicago",
            "Country": "USA",
            "Latitude": "41.9101162",
            "Longitude": "-87.9725693",
            "NetworkCount": "0",
            "website": "https://www.intred.it"
        },
        {
            "Type": "Azure",
            "Name": "Azure France South",
            "CompanyName": "Microsoft",
            "City": "Marseille",
            "Country": "France",
            "Latitude": "43.2774553",
            "Longitude": "5.3781509",
            "NetworkCount": "8",
            "website": "http://www.ldexgroup.co.uk"
        },
        {
            "Type": "Azure",
            "Name": "Azure Canada Central",
            "CompanyName": "Microsoft",
            "City": "Toronto",
            "Country": "Canada",
            "Latitude": "43.6595913",
            "Longitude": "-79.4464851",
            "NetworkCount": "0",
            "website": "http://www.ldp.net.id"
        },
        {
            "Type": "Azure",
            "Name": "Azure Switzerland West (announced)",
            "CompanyName": "Microsoft",
            "City": "Zurich",
            "Latitude": "46.2069233",
            "Longitude": "6.1683366",
            "NetworkCount": "6",
            "website": "http://www.neutralpath.net/colocationmdashdata-center.html"
        },
        {
            "Type": "Azure",
            "Name": "Azure Canada East",
            "CompanyName": "Microsoft",
            "City": "Quebec City",
            "Country": "Canada",
            "Latitude": "46.8517391",
            "Longitude": "-71.2353516",
            "NetworkCount": "0",
            "website": "http://nusantaradatacenter.com/contact-page/"
        },
        {
            "Type": "Azure",
            "Name": "Azure Switzerland North (announced)",
            "CompanyName": "Microsoft",
            "Country": "Switzerland",
            "Latitude": "47.3687106",
            "Longitude": "8.5513115",
            "NetworkCount": "12",
            "website": "http://www.orange.pl/"
        },
        {
            "Type": "Azure",
            "Name": "Azure West US 2",
            "CompanyName": "Microsoft",
            "City": "Seattle",
            "Country": "USA",
            "Latitude": "47.5516614",
            "Longitude": "-122.3101044",
            "NetworkCount": "24",
            "website": "http://www.g8.net.br"
        },
        {
            "Type": "Azure",
            "Name": "Azure France Central",
            "CompanyName": "Microsoft",
            "City": "Paris",
            "Country": "France",
            "Latitude": "48.8889123",
            "Longitude": "2.3635488",
            "NetworkCount": "1",
            "website": "http://www.sagonet.com"
        },
        {
            "Type": "Azure",
            "Name": "Azure Germany Central",
            "CompanyName": "Microsoft",
            "City": "Frankfurt",
            "Country": "Germany",
            "Latitude": "50.1100834",
            "Longitude": "8.6493301",
            "AWSDCOnRamp": "ap-south-1",
            "AWSRegionName": "Asia Pacific (Mumbai)",
            "AWSRegion": "ap-south-1"
        },
        {
            "Type": "Azure",
            "Name": "Azure Germany West Central (announced)",
            "CompanyName": "Microsoft",
            "City": "Dortmund",
            "Country": "Germany",
            "Latitude": "51.4414427",
            "Longitude": "7.5531006",
            "NetworkCount": "2",
            "website": "http://www.tmr.net/"
        },
        {
            "Type": "Azure",
            "Name": "Azure UK South",
            "CompanyName": "Microsoft",
            "City": "London",
            "Country": "England",
            "Latitude": "51.4886875",
            "Longitude": "-0.0085848",
            "NetworkCount": "4",
            "website": "https://www.trabia.com"
        },
        {
            "Type": "Azure",
            "Name": "Azure UK West",
            "CompanyName": "Microsoft",
            "City": "Cardiff",
            "Country": "England",
            "Latitude": "51.4887224",
            "Longitude": "-3.1561661",
            "NetworkCount": "0",
            "website": "http://www.trgdatacenters.com/"
        },
        {
            "Type": "Azure",
            "Name": "Azure Germany Northeast",
            "CompanyName": "Microsoft",
            "City": "Magdeburg",
            "Country": "Germany",
            "Latitude": "52.1100898",
            "Longitude": "11.6265118",
            "NetworkCount": "0",
            "website": "http://wktnet.ru"
        },
        {
            "Type": "Azure",
            "Name": "Azure West Europe",
            "CompanyName": "Microsoft",
            "Latitude": "52.2614336",
            "Longitude": "4.8522764",
            "NetworkCount": "0",
            "website": "http://www.zayo.com/facilities/1100-white-sw/"
        },
        {
            "Type": "Azure",
            "Name": "Azure North Europe",
            "CompanyName": "Microsoft",
            "Latitude": "53.4010032",
            "Longitude": "-6.2253582",
            "website": "http://extreme-ix.org",
            "PeakTrafficGbps": "140"
        },
        {
            "Type": "Azure",
            "Name": "Azure Germany North (announced)",
            "CompanyName": "Microsoft",
            "City": "Hamburg",
            "Country": "Germany",
            "Latitude": "53.5729383",
            "Longitude": "10.2941895"
        },
        {
            "Type": "Azure",
            "Name": "Azure Norway East (announced)",
            "CompanyName": "Microsoft",
            "City": "Oslo",
            "Country": "Norway",
            "Latitude": "59.9806885",
            "Longitude": "10.2978145",
            "website": "http://ix.py"
        },
        {
            "Type": "Azure",
            "Name": "Azure Norway West (announced)",
            "CompanyName": "Microsoft",
            "City": "Bergen",
            "Country": "Norway",
            "Latitude": "60.4174867",
            "Longitude": "5.3393555",
            "Description": "Fully neutral. NOT owned by any ISP/carrier.",
            "website": "http://www.lixp.lt/en/"
        },
        {
            "Type": "ClientAWS",
            "SiteCode": "USAW",
            "SyngentaGroup": "n/a",
            "Name": "Ashburn/AWS",
            "SiteCategory": "Partially Managed Connection",
            "CompanyName": "Amazon",
            "Address": "n/a (virtual address)",
            "City": "Ashburn",
            "State": "VA",
            "Country": "USA",
            "Latitude": "39.0160416",
            "Longitude": "-77.4616794",
            "Region": "NA",
            "SiteContactName": "James Bailiff",
            "SiteContactPhone": "+1 (336) 632-7357",
            "EquipmentOwner": "BT/Express Route",
            "NetworkCount": "0",
            "website": "http://www.everstream.net"
        },
        {
            "Type": "ClientAWS",
            "SiteCode": "DEAW",
            "SyngentaGroup": "n/a",
            "Name": "Frankfurt/AWS",
            "SiteCategory": "Partially Managed Connection",
            "CompanyName": "Amazon",
            "Address": "n/a (virtual address)",
            "City": "Frankfurt",
            "Country": "Germany",
            "Latitude": "50.115735",
            "Longitude": "8.6501335",
            "Region": "EAME",
            "SiteContactName": "Bhuwneshwar Singh (GDC)",
            "EquipmentOwner": "BT/Express Route",
            "NetworkCount": "0",
            "website": "https://www.flexential.com/"
        },
        {
            "Type": "ClientAWS",
            "Name": "Oregon/AWS",
            "CompanyName": "AWS",
            "City": "Seattle",
            "Country": "USA",
            "Latitude": "47.5579939",
            "Longitude": "-122.312391",
            "NetworkCount": "0",
            "website": "https://www.flexential.com/"
        },
        {
            "Type": "ClientAWS",
            "Name": "Singapre/AWS",
            "CompanyName": "AWS",
            "City": "Singapore",
            "Country": "Malaysia",
            "Latitude": "1.3532241",
            "Longitude": "103.8440326",
            "NetworkCount": "1",
            "website": "http://www.g8.net.br"
        },
        {
            "Type": "ClientAWS",
            "SiteCode": "IEAW",
            "SyngentaGroup": "n/a",
            "Name": "Dublin/AWS",
            "SiteCategory": "Partially Managed Connection",
            "CompanyName": "Amazon",
            "Address": "n/a (virtual address)",
            "City": "Dublin",
            "Country": "Ireland",
            "Latitude": "53.4060189",
            "Longitude": "-6.1969757",
            "Region": "EAME",
            "SiteContactName": "Bhuwneshwar Singh (GDC)",
            "EquipmentOwner": "BT",
            "NetworkCount": "64",
            "website": "http://www.interxion.com/"
        },
        {
            "Type": "ClientAzure",
            "SiteCode": "SGAZ",
            "SyngentaGroup": "n/a",
            "Name": "Singapore/Azure",
            "SiteCategory": "Partially Managed Connection",
            "CompanyName": "Microsoft",
            "Address": "AZURE SOUTH EAST ASIA (SINGAPORE Datacenter",
            "City": "Singapore",
            "Country": "Singapore",
            "Latitude": "-37.5126013",
            "Longitude": "144.9572383",
            "Region": "APAC",
            "SiteContactName": "Subhadarshi Sengupta",
            "SiteContactPhone": "+91 20 6684 5684",
            "EquipmentOwner": "BT/Express Route",
            "NetworkCount": "8",
            "Description": "One of the largest and most technologically advanced data center facilities in Russia. Compliant with key\r\r\ninternational standards. \r\r\n\r\r\nTotal area: 9,000 m2; Power: 12 MW; gas power station\r\r\nReliability level: TIER 3; Certification: ISO 27001, ISO 9001, PCI DSS\r\r\nDirect connection to Kantemirovskaya 12, Borovaya 57 hubs.\r\r\n\r\r\nTelecom operators on site: Avantel, CITIC, Comfortel, Beeline, Orange/ Equant, Global Net, Megafon, MTS, OBIT, Prometey, RetnNet, Rostelecom, Severen Telecom, Smart Telecom, Transtelecom, Westcall, InterZet, MSK IX, DATA IX, SkyNet.",
            "website": "http://www.linxdatacenter.com/"
        },
        {
            "Type": "ClientAzure",
            "SiteCode": "AUAZ",
            "SyngentaGroup": "n/a",
            "Name": "Australia/Azure",
            "SiteCategory": "Key Site",
            "CompanyName": "Microsoft",
            "Address": "n/a (virtual address)",
            "Country": "Australia",
            "Latitude": "-25.274398",
            "Longitude": "133.775136",
            "Region": "APAC",
            "EquipmentOwner": "BT",
            "NetworkCount": "0",
            "website": "http://www.titania.com.br"
        },
        {
            "Type": "ClientAzure",
            "SiteCode": "USAZ",
            "SyngentaGroup": "n/a",
            "Name": "Ashburn/Azure",
            "SiteCategory": "Partially Managed Connection",
            "CompanyName": "Microsoft",
            "Address": "n/a (virtual address)",
            "City": "Ashburn",
            "State": "VA",
            "Country": "USA",
            "Latitude": "39.0110255",
            "Longitude": "-77.4640703",
            "Region": "NA",
            "SiteContactName": "James Bailiff",
            "SiteContactPhone": "+1 (336) 632-7357",
            "EquipmentOwner": "BT/Express Route",
            "NetworkCount": "0",
            "website": "http://www.rechenzentrum-zuerich.net"
        },
        {
            "Type": "ClientAzure",
            "SiteCode": "NLAZ",
            "SyngentaGroup": "n/a",
            "Name": "Amsterdam/Azure",
            "SiteCategory": "Key Site",
            "CompanyName": "Microsoft",
            "Address": "Microsoft",
            "City": "Amsterdam",
            "Country": "Netherlands",
            "Latitude": "52.2614336",
            "Longitude": "4.8522764",
            "Region": "EAME",
            "SiteContactName": "Subhadarshi Sengupta",
            "SiteContactPhone": "+91 20 6684 5684",
            "EquipmentOwner": "BT",
            "NetworkCount": "4"
        },
        {
            "Type": "ClientAzure",
            "SiteCode": "IEAZ",
            "SyngentaGroup": "n/a",
            "Name": "Dublin/Azure",
            "SiteCategory": "Partially Managed Connection",
            "CompanyName": "Microsoft",
            "Address": "n/a (virtual address)",
            "City": "Dublin",
            "Country": "Ireland",
            "Latitude": "53.4010032",
            "Longitude": "-6.2253582",
            "Region": "EAME",
            "SiteContactName": "Subhadarshi Sengupta",
            "SiteContactPhone": "+91 20 6684 5684",
            "EquipmentOwner": "BT/Express Route",
            "NetworkCount": "2",
            "website": "http://www.sungardas.com/Company/InfrastructureDataCenters/NorthAmericanDataCenters/SacramentoDataCenters/Pages/SacramentoDataCe"
        },
        {
            "Type": "CoLocation",
            "Name": "CCL Christchurch",
            "CompanyName": "Computer Concepts Limited",
            "Address": "21 Durham street ",
            "City": "Christchurch",
            "Country": "New Zeland",
            "Latitude": "-43.546476",
            "Longitude": "172.632978"
        },
        {
            "Type": "CoLocation",
            "Name": "Revera Show Place",
            "CompanyName": "Revera",
            "Address": "7 Show Place",
            "City": "Christchurch",
            "Country": "New Zeland",
            "Latitude": "-43.542343",
            "Longitude": "172.603148"
        },
        {
            "Type": "CoLocation",
            "Name": "Enable Networks Hornby POI",
            "CompanyName": "Enable Networks Limited",
            "Address": "153 Main South Road",
            "City": "Christchurch",
            "Country": "New Zeland",
            "ZIP": "8042",
            "Latitude": "-43.538834",
            "Longitude": "172.555049"
        },
        {
            "Type": "CoLocation",
            "Name": "Datacom Christchurch DC",
            "CompanyName": "Spark New Zealand Trading Limited",
            "Address": "67 Gloucester St",
            "City": "Christchurch",
            "Country": "New Zeland",
            "ZIP": "8013",
            "Latitude": "-43.529429",
            "Longitude": "172.631994"
        },
        {
            "Type": "CoLocation",
            "Name": "Umbrellar CHC1",
            "CompanyName": "Umbrellar Limited",
            "Address": "Unit 5, 7 Sir Gil Simpson Drive",
            "City": "Christchurch",
            "Country": "New Zeland",
            "ZIP": "8053",
            "Latitude": "-43.492029",
            "Longitude": "172.559494"
        },
        {
            "Type": "CoLocation",
            "Name": "PIPE Networks Hobart",
            "CompanyName": "PIPE Networks",
            "Address": "Level 2,",
            "City": "HOBART",
            "State": "TA",
            "Country": "Australia",
            "ZIP": "7000",
            "Latitude": "-42.881849",
            "Longitude": "147.328921"
        },
        {
            "Type": "CoLocation",
            "Name": "TasmaNet Hobart DC3",
            "CompanyName": "TasmaNet Pty Ltd",
            "Address": "40-50 Innovation Drive",
            "City": "Dowsing Point",
            "State": "Tasmania",
            "Country": "Australia",
            "ZIP": "7010",
            "Latitude": "-42.822507",
            "Longitude": "147.304308"
        },
        {
            "Type": "CoLocation",
            "Name": "Caduceus Datacentre",
            "CompanyName": "Caduceus Systems Ltd",
            "Address": "Level 3",
            "City": "Wellington",
            "Country": "New Zeland",
            "Latitude": "-41.283637",
            "Longitude": "174.776599",
            "Description": "This DXC data center is an HP data center"
        },
        {
            "Type": "CoLocation",
            "Name": "Spark Wellington Central (Featherston)",
            "CompanyName": "Spark New Zealand Trading Limited",
            "Address": "70 Featherston St",
            "City": "Wellington",
            "Country": "New Zeland",
            "Latitude": "-41.280572",
            "Longitude": "174.778334",
            "Description": "This DXC data center is an HP data center"
        },
        {
            "Type": "CoLocation",
            "Name": "Localhost Wellington",
            "CompanyName": "Localhost Limited",
            "Address": "15 Murphy Street",
            "City": "Wellington",
            "Country": "New Zeland",
            "ZIP": "6011",
            "Latitude": "-41.274901",
            "Longitude": "174.779274",
            "Description": "This DXC data center is an HP data center"
        },
        {
            "Type": "CoLocation",
            "Name": "Citylink Classic House",
            "CompanyName": "Citylink Limited",
            "Address": "17 Murphy Street",
            "City": "Wellington",
            "Country": "New Zeland",
            "Latitude": "-41.274693",
            "Longitude": "174.779137"
        },
        {
            "Type": "CoLocation",
            "Name": "Xtreme Networks | Data Centre",
            "CompanyName": "Xtreme Networks Limited",
            "Address": "Level 1, 191 Thorndon Quay",
            "City": "Pipitea",
            "State": "Wellington",
            "Country": "New Zeland",
            "ZIP": "6011",
            "Latitude": "-41.271792",
            "Longitude": "174.781737"
        },
        {
            "Type": "CoLocation",
            "Name": "Plan B Tawa",
            "CompanyName": "Plan B",
            "Address": "210 Main Road",
            "City": "Wellington",
            "Country": "New Zeland",
            "ZIP": "5028",
            "Latitude": "-41.169595",
            "Longitude": "174.825314"
        },
        {
            "Type": "CoLocation",
            "Name": "Spark Gisborne Exchange",
            "CompanyName": "Spark New Zealand Trading Limited",
            "Address": "52 Customhouse Street",
            "City": "Gisborne",
            "Country": "New Zeland",
            "ZIP": "4010",
            "Latitude": "-38.669171",
            "Longitude": "178.027423"
        },
        {
            "Type": "CoLocation",
            "Name": "Global Centre",
            "CompanyName": "Datacom Group Ltd",
            "Address": "Level 2, 190 City Road",
            "City": "Melbourne",
            "State": "Victoria",
            "Country": "Australia",
            "ZIP": "3006",
            "Latitude": "-37.824409",
            "Longitude": "144.961523"
        },
        {
            "Type": "CoLocation",
            "Name": "NEXTDC M1 (ap-southeast-2)",
            "CompanyName": "NEXTDC P1",
            "Address": "826 Lorimer St, Port Melbourne VIC 3207, Australia",
            "Country": "Australia",
            "Latitude": "-37.8226336",
            "Longitude": "144.9321061"
        },
        {
            "Type": "CoLocation",
            "Name": "NEXTDC M1",
            "CompanyName": "NEXTDC",
            "Address": "820 Lorimer Street",
            "City": "Melbourne",
            "State": "VIC",
            "Country": "Australia",
            "ZIP": "3006",
            "Latitude": "-37.821705",
            "Longitude": "144.931061"
        },
        {
            "Type": "CoLocation",
            "Name": "Equinix Melbourne (ME1)",
            "CompanyName": "Equinix",
            "Address": "600 Lorimer Street",
            "City": "Melbourne",
            "State": "Victoria",
            "Country": "Australia",
            "ZIP": "3207",
            "Latitude": "-37.821681",
            "Longitude": "144.915458"
        },
        {
            "Type": "CoLocation",
            "Name": "AAPT Richmond (Melbourne)",
            "CompanyName": "AAPT (TNZA)",
            "Address": "180 Burnley St",
            "City": "Richmond",
            "State": "VI",
            "Country": "Australia",
            "ZIP": "3043",
            "Latitude": "-37.820173",
            "Longitude": "145.007747"
        },
        {
            "Type": "CoLocation",
            "Name": "PIPE Networks Melbourne",
            "CompanyName": "PIPE Networks",
            "Address": "Level 3,",
            "City": "MELBOURNE",
            "State": "VI",
            "Country": "Australia",
            "ZIP": "3000",
            "Latitude": "-37.819171",
            "Longitude": "144.956726"
        },
        {
            "Type": "CoLocation",
            "Name": "Primus DataCentre",
            "CompanyName": "Vocus Group",
            "Address": "55 King Street",
            "City": "Melbourne",
            "State": "VI",
            "Country": "Australia",
            "ZIP": "3000",
            "Latitude": "-37.819171",
            "Longitude": "144.956726"
        },
        {
            "Type": "CoLocation",
            "Name": "AAPT Melbourne",
            "CompanyName": "AAPT (TNZA)",
            "Address": "Level 5, 530 Collins Street",
            "City": "Melbourne",
            "State": "VI",
            "Country": "Australia",
            "ZIP": "3000",
            "Latitude": "-37.817684",
            "Longitude": "144.956817"
        },
        {
            "Type": "CoLocation",
            "Name": "Melbourne DC",
            "CompanyName": "Melbourne DataCentre",
            "Address": "Level 15, 530 Collins St",
            "City": "Melbourne",
            "State": "V",
            "Country": "Australia",
            "ZIP": "3001",
            "Latitude": "-37.817684",
            "Longitude": "144.956817"
        },
        {
            "Type": "CoLocation",
            "Name": "Vocus Melbourne (530 Collins)",
            "CompanyName": "Vocus Group",
            "Address": "Level 3/530 Collins Street",
            "City": "Melbourne",
            "State": "Vi",
            "Country": "Australia",
            "ZIP": "3000",
            "Latitude": "-37.817684",
            "Longitude": "144.956817"
        },
        {
            "Type": "CoLocation",
            "Name": "Equinix Melbourne (ME5) (formerly Metronode Melbourne 1)",
            "CompanyName": "Equinix",
            "Address": "22-36 Walsh Street",
            "City": "Melbourne",
            "State": "Victoria",
            "Country": "Australia",
            "ZIP": "3003",
            "Latitude": "-37.807942",
            "Longitude": "144.953538"
        },
        {
            "Type": "CoLocation",
            "Name": "Soul DataCentre",
            "CompanyName": "Soul / TPG / Pipe",
            "Address": "222 Dryburgh Street",
            "City": "North Melbourne",
            "State": "VI",
            "Country": "Australia",
            "ZIP": "3051",
            "Latitude": "-37.801212",
            "Longitude": "144.944089"
        },
        {
            "Type": "CoLocation",
            "Name": "AirTrunk MEL1",
            "CompanyName": "AirTrunk Operating Pty Ltd",
            "Address": "176 Swann Drive",
            "City": "Derrimut",
            "State": "VIC",
            "Country": "Australia",
            "ZIP": "3030",
            "Latitude": "-37.800397",
            "Longitude": "144.773648"
        },
        {
            "Type": "CoLocation",
            "Name": "Equinix Melbourne (ME4) (formerly Metronode Melbourne 2)",
            "CompanyName": "Equinix",
            "City": "Derrimut",
            "State": "VIC",
            "Country": "Australia",
            "ZIP": "3030",
            "Latitude": "-37.785683",
            "Longitude": "144.780045"
        },
        {
            "Type": "CoLocation",
            "Name": "Digital Realty Melbourne (72 Radnor)",
            "CompanyName": "Digital Realty",
            "Address": "72 Radnor Drive",
            "City": "Deer Park",
            "State": "Victoria",
            "Country": "Australia",
            "ZIP": "3023",
            "Latitude": "-37.781135",
            "Longitude": "144.778056"
        },
        {
            "Type": "CoLocation",
            "Name": "Datavault Hamilton",
            "CompanyName": "Data Vault Limited",
            "Address": "32 The Boulevard",
            "City": "Hamilton",
            "Country": "New Zeland",
            "Latitude": "-37.741274",
            "Longitude": "175.224321"
        },
        {
            "Type": "CoLocation",
            "Name": "Datacom Kapua",
            "CompanyName": "Datacom",
            "Address": " 14 Simsey Place",
            "City": "Hamilton",
            "Country": "New Zeland",
            "ZIP": "3200",
            "Latitude": "-37.736322",
            "Longitude": "175.221186"
        },
        {
            "Type": "CoLocation",
            "Name": "NEXTDC M2",
            "CompanyName": "NEXTDC",
            "Address": "75 Sharps Rd",
            "City": "Tullamarine",
            "State": "Victoria",
            "Country": "Australia",
            "ZIP": "3043",
            "Latitude": "-37.708029",
            "Longitude": "144.875694"
        },
        {
            "Type": "CoLocation",
            "Name": "StrataGate Datacentre",
            "CompanyName": "EOL",
            "Address": "6th Floor",
            "City": "Tauranga",
            "Country": "New Zeland",
            "ZIP": "3110",
            "Latitude": "-37.681867",
            "Longitude": "176.168362"
        },
        {
            "Type": "CoLocation",
            "Name": "Aus Net Servers Australia Pty Ltd",
            "CompanyName": "Aus Net Servers Australia Pty Ltd",
            "Address": "1 University Drive",
            "City": "Mount Helen",
            "State": "VIC",
            "Country": "Australia",
            "ZIP": "3350",
            "Latitude": "-37.626441",
            "Longitude": "143.891095"
        },
        {
            "Type": "CoLocation",
            "Name": "Datavault Auckland",
            "CompanyName": "Data Vault Limited",
            "Address": "162 Grafton Road",
            "City": "Auckland",
            "Country": "New Zeland",
            "ZIP": "1010",
            "Latitude": "-36.863902",
            "Longitude": "174.764518"
        },
        {
            "Type": "CoLocation",
            "Name": "ICONZ House",
            "CompanyName": "ICONZ Webvisions",
            "Address": "60 Airedale Street",
            "City": "Auckland",
            "State": "NI",
            "Country": "New Zeland",
            "ZIP": "1010",
            "Latitude": "-36.855776",
            "Longitude": "174.765448"
        },
        {
            "Type": "CoLocation",
            "Name": "Mayoral Drive Exchange (MDR)",
            "CompanyName": "Spark New Zealand Trading Limited",
            "Address": "31 Airedale Street",
            "City": "Auckland",
            "Country": "New Zeland",
            "ZIP": "1010",
            "Latitude": "-36.854324",
            "Longitude": "174.764384"
        },
        {
            "Type": "CoLocation",
            "Name": "DataCentre220",
            "CompanyName": "Data Centre Limited",
            "Address": "220 Queen Street",
            "City": "Auckland",
            "Country": "New Zeland",
            "ZIP": "1010",
            "Latitude": "-36.849346",
            "Longitude": "174.765412"
        },
        {
            "Type": "CoLocation",
            "Name": "191 Queen Street",
            "CompanyName": "Call Plus",
            "Address": "191 Queen Street",
            "City": "Auckland",
            "Country": "New Zeland",
            "ZIP": "1010",
            "Latitude": "-36.848501",
            "Longitude": "174.765164"
        },
        {
            "Type": "CoLocation",
            "Name": "Vocus Auckland - Queen St",
            "CompanyName": "Vocus Group",
            "Address": "191 Queen St",
            "City": "Auckland",
            "Country": "New Zeland",
            "ZIP": "1010",
            "Latitude": "-36.848501",
            "Longitude": "174.765164"
        },
        {
            "Type": "CoLocation",
            "Name": "Sky Tower",
            "CompanyName": "Johnson Dick Associates / JDA",
            "Address": "Level 47/48",
            "City": "Auckland",
            "Country": "New Zeland",
            "ZIP": "1010",
            "Latitude": "-36.848418",
            "Longitude": "174.762223"
        },
        {
            "Type": "CoLocation",
            "Name": "Vocus Auckland - Northcote",
            "CompanyName": "Vocus Group",
            "Address": "46E Northcote Rd",
            "City": "Auckland",
            "Country": "New Zeland",
            "Latitude": "-36.793602",
            "Longitude": "174.747457"
        },
        {
            "Type": "CoLocation",
            "Name": "Vector Northcote (NTC)",
            "CompanyName": "Vector Communications Ltd",
            "Address": " 46C Northcote Road",
            "City": "Auckland",
            "Country": "New Zeland",
            "Latitude": "-36.793469",
            "Longitude": "174.747408"
        },
        {
            "Type": "CoLocation",
            "Name": "Vodafone Albany Data Centre",
            "CompanyName": "Vodafone New Zealand Ltd.",
            "Address": "3a William Pickering Drive",
            "City": "Auckland",
            "Country": "New Zeland",
            "Latitude": "-36.751953",
            "Longitude": "174.705385"
        },
        {
            "Type": "CoLocation",
            "Name": "Vocus Auckland - Albany",
            "CompanyName": "Vocus Group",
            "Address": "7A Parkhead Place",
            "City": "Auckland",
            "Country": "New Zeland",
            "ZIP": "632",
            "Latitude": "-36.750234",
            "Longitude": "174.696364"
        },
        {
            "Type": "CoLocation",
            "Name": "HDDC",
            "CompanyName": "HD Net Ltd",
            "Address": "11C Piermark Drive",
            "City": "Auckland",
            "Country": "New Zeland",
            "ZIP": "632",
            "Latitude": "-36.747392",
            "Longitude": "174.702175"
        },
        {
            "Type": "CoLocation",
            "Name": "Plan B Tarndale Grove",
            "CompanyName": "Plan B",
            "Address": "15 Tarndale Grove",
            "City": "Auckland",
            "Country": "New Zeland",
            "ZIP": "632",
            "Latitude": "-36.745787",
            "Longitude": "174.702002"
        },
        {
            "Type": "CoLocation",
            "Name": "Umbrellar AKL1",
            "CompanyName": "Umbrellar Limited",
            "Address": "30b Arrenway Drive",
            "City": "Auckland",
            "Country": "New Zeland",
            "ZIP": "632",
            "Latitude": "-36.743326",
            "Longitude": "174.723311"
        },
        {
            "Type": "CoLocation",
            "Name": "Datacom Orbit Dr",
            "CompanyName": "Spark New Zealand Trading Limited",
            "Address": "6 Orbit Drive",
            "City": "Auckland",
            "Country": "New Zeland",
            "ZIP": "632",
            "Latitude": "-36.740554",
            "Longitude": "174.728988"
        },
        {
            "Type": "CoLocation",
            "Name": "Las Toninas, Argentina Cable landing station",
            "CompanyName": "Telefonica de Argentina",
            "Address": "Calle 7 s/n, Costa Chica, Partido de la Costa, Argentina",
            "City": "Las Toninas",
            "State": "Buenos Aires",
            "Country": "Argentina",
            "ZIP": "7106",
            "Latitude": "-36.509762",
            "Longitude": "-56.700015"
        },
        {
            "Type": "CoLocation",
            "Name": "TransACT Telehouse",
            "CompanyName": "TransACT Capital Communications Pty Ltd",
            "Address": "470 Northbourne Ave",
            "City": "Canberra",
            "State": "Australian Capital Territory",
            "Country": "Australia",
            "ZIP": "2602",
            "Latitude": "-35.251849",
            "Longitude": "149.133934"
        },
        {
            "Type": "CoLocation",
            "Name": "NEXTDC C1, Canberra, Australia (ap-southeast-2)",
            "CompanyName": "NEXTDC P1",
            "Address": "19 Battye St, Bruce ACT 2617, Australia",
            "Country": "Australia",
            "Latitude": "-35.245383",
            "Longitude": "149.0961936"
        },
        {
            "Type": "CoLocation",
            "Name": "NEXTDC C1",
            "CompanyName": "NEXTDC",
            "Address": "19 Battye Street",
            "City": "Bruce",
            "State": "AC",
            "Country": "Australia",
            "ZIP": "2617",
            "Latitude": "-35.245308",
            "Longitude": "149.096242"
        },
        {
            "Type": "CoLocation",
            "Name": "ADC Mitchell",
            "CompanyName": "Australian Data Centre",
            "Address": "38 Vicars Street",
            "City": "Mitchell",
            "State": "AC",
            "Country": "Australia",
            "ZIP": "2911",
            "Latitude": "-35.211332",
            "Longitude": "149.146265"
        },
        {
            "Type": "CoLocation",
            "Name": "Australian Data Centres - Dacre St, Mitchell",
            "CompanyName": "Australian Data Centres - Dacre St, Mitchell",
            "Address": "Dacre Street",
            "City": "Canberra",
            "Country": "Australia",
            "Latitude": "-35.210375",
            "Longitude": "149.136501"
        },
        {
            "Type": "CoLocation",
            "Name": "YourDC Pty Ltd - Hawthorn",
            "CompanyName": "YourDC Pty Ltd",
            "City": "Hawthorn",
            "State": "SA",
            "Country": "Australia",
            "ZIP": "5062",
            "Latitude": "-34.971021",
            "Longitude": "138.608452"
        },
        {
            "Type": "CoLocation",
            "Name": "Access Digital Networks ADL1",
            "CompanyName": "Interactive Gateway Australia Pty. Ltd.",
            "City": "Adelaide",
            "State": "SA",
            "Country": "Australia",
            "ZIP": "5000",
            "Latitude": "-34.94125",
            "Longitude": "138.611"
        },
        {
            "Type": "CoLocation",
            "Name": "Adam Data Centre",
            "CompanyName": "Adam Internet Pty. Ltd.",
            "City": "Mile End South",
            "State": "SA",
            "Country": "Australia",
            "ZIP": "5031",
            "Latitude": "-34.935714",
            "Longitude": "138.572988"
        },
        {
            "Type": "CoLocation",
            "Name": "Colocity DC1",
            "CompanyName": "Colocity",
            "Address": "247 Pulteney Street",
            "City": "Adelaide",
            "State": "SA",
            "Country": "Australia",
            "ZIP": "5000",
            "Latitude": "-34.928703",
            "Longitude": "138.605516"
        },
        {
            "Type": "CoLocation",
            "Name": "Internode DC",
            "CompanyName": "corporate-projects@cases.internode.com.au",
            "Address": "262 Franklin St",
            "City": "Adelaide",
            "State": "SA",
            "Country": "Australia",
            "ZIP": "5000",
            "Latitude": "-34.927275",
            "Longitude": "138.589137"
        },
        {
            "Type": "CoLocation",
            "Name": "HostExpress ADL1",
            "CompanyName": "Comwire Cloud Pty Ltd",
            "Address": "L5/132 Franklin Street",
            "City": "Adelaide",
            "State": "SA",
            "Country": "Australia",
            "ZIP": "5000",
            "Latitude": "-34.927233",
            "Longitude": "138.594121"
        },
        {
            "Type": "CoLocation",
            "Name": "PIPE Networks Adelaide",
            "CompanyName": "PIPE Networks",
            "Address": "Level 2,",
            "City": "Adelaide",
            "State": "SA",
            "Country": "Australia",
            "ZIP": "5000",
            "Latitude": "-34.927233",
            "Longitude": "138.594121"
        },
        {
            "Type": "CoLocation",
            "Name": "Primus Adelaide",
            "CompanyName": "Vocus Group",
            "Address": "Level 1, 132 Franklin Street",
            "City": "Adelaide",
            "State": "SA",
            "Country": "Australia",
            "ZIP": "5000",
            "Latitude": "-34.927233",
            "Longitude": "138.594121"
        },
        {
            "Type": "CoLocation",
            "Name": "Colocity DC3",
            "CompanyName": "Colocity",
            "Address": "172 Morphett Street",
            "City": "Adelaide",
            "State": "SA",
            "Country": "Australia",
            "ZIP": "5000",
            "Latitude": "-34.926518",
            "Longitude": "138.593996"
        },
        {
            "Type": "CoLocation",
            "Name": "AAPT Adelaide",
            "CompanyName": "AAPT (TNZA)",
            "Address": "Level 1, 45 Pirie Street",
            "City": "Adelaide",
            "State": "SA",
            "Country": "Australia",
            "ZIP": "5000",
            "Latitude": "-34.926075",
            "Longitude": "138.6013"
        },
        {
            "Type": "CoLocation",
            "Name": "Dedicado",
            "CompanyName": "Tecnowind S.A.",
            "Address": "Dr. Luis Bonavita 1266 Piso 29",
            "City": "Montevideo",
            "State": "Montevideo",
            "Country": "Uruguay",
            "ZIP": "11300",
            "Latitude": "-34.903805",
            "Longitude": "-56.134931"
        },
        {
            "Type": "CoLocation",
            "Name": "YourDC Pty Ltd - Edinburgh Parks",
            "CompanyName": "YourDC Pty Ltd",
            "City": "Edinburgh Parks",
            "State": "SA",
            "Country": "Australia",
            "ZIP": "5111",
            "Latitude": "-34.73234",
            "Longitude": "138.638441"
        },